{
  "type": "FeatureCollection",
  "generator": "overpass-turbo",
  "copyright": "The data included in this document is from www.openstreetmap.org. The data is made available under ODbL.",
  "timestamp": "2024-06-10T02:32:14Z",
  "features": [
    {
      "type": "Feature",
      "properties": {
        "@id": "node/250656805",
        "level": "-1",
        "railway": "subway_entrance",
        "wheelchair": "no"
      },
      "geometry": {
        "type": "Point",
        "coordinates": [
          2.3013478,
          48.8395162
        ]
      },
      "id": "node/250656805"
    },
    {
      "type": "Feature",
      "properties": {
        "@id": "node/256441196",
        "name": "Rue d'Avron",
        "railway": "subway_entrance",
        "ref": "3",
        "wheelchair": "no"
      },
      "geometry": {
        "type": "Point",
        "coordinates": [
          2.4060382,
          48.8525631
        ]
      },
      "id": "node/256441196"
    },
    {
      "type": "Feature",
      "properties": {
        "@id": "node/256441197",
        "name": "Rue des Maraichers",
        "railway": "subway_entrance",
        "ref": "2",
        "wheelchair": "no"
      },
      "geometry": {
        "type": "Point",
        "coordinates": [
          2.4062242,
          48.8525894
        ]
      },
      "id": "node/256441197"
    },
    {
      "type": "Feature",
      "properties": {
        "@id": "node/256441199",
        "name": "Rue des Pyrénées",
        "railway": "subway_entrance",
        "ref": "1",
        "wheelchair": "no"
      },
      "geometry": {
        "type": "Point",
        "coordinates": [
          2.4059528,
          48.8529115
        ]
      },
      "id": "node/256441199"
    },
    {
      "type": "Feature",
      "properties": {
        "@id": "node/256442277",
        "name": "Rue d'Avron",
        "railway": "subway_entrance",
        "ref": "3"
      },
      "geometry": {
        "type": "Point",
        "coordinates": [
          2.4104239,
          48.8536538
        ]
      },
      "id": "node/256442277"
    },
    {
      "type": "Feature",
      "properties": {
        "@id": "node/256442278",
        "destination": "T3b;57;351",
        "name": "Rue du Volga",
        "railway": "subway_entrance",
        "ref": "4",
        "wheelchair": "no"
      },
      "geometry": {
        "type": "Point",
        "coordinates": [
          2.4104784,
          48.8533106
        ]
      },
      "id": "node/256442278"
    },
    {
      "type": "Feature",
      "properties": {
        "@id": "node/256442279",
        "destination": "T3b;215",
        "name": "Avenue de la Porte de Montreuil",
        "railway": "subway_entrance",
        "ref": "1",
        "wheelchair": "no"
      },
      "geometry": {
        "type": "Point",
        "coordinates": [
          2.4112589,
          48.8534923
        ]
      },
      "id": "node/256442279"
    },
    {
      "type": "Feature",
      "properties": {
        "@id": "node/256443206",
        "name": "Rue des Boulets",
        "railway": "subway_entrance",
        "ref": "2",
        "wheelchair": "no"
      },
      "geometry": {
        "type": "Point",
        "coordinates": [
          2.3892699,
          48.8522271
        ]
      },
      "id": "node/256443206"
    },
    {
      "type": "Feature",
      "properties": {
        "@id": "node/256443210",
        "name": "Cité Voltaire",
        "railway": "subway_entrance",
        "ref": "1",
        "wheelchair": "no"
      },
      "geometry": {
        "type": "Point",
        "coordinates": [
          2.3894805,
          48.8523369
        ]
      },
      "id": "node/256443210"
    },
    {
      "type": "Feature",
      "properties": {
        "@id": "node/256443444",
        "name": "Rue de Charonne",
        "railway": "subway_entrance",
        "ref": "1",
        "wheelchair": "no"
      },
      "geometry": {
        "type": "Point",
        "coordinates": [
          2.3853215,
          48.8545824
        ]
      },
      "id": "node/256443444"
    },
    {
      "type": "Feature",
      "properties": {
        "@id": "node/257081527",
        "image": "https://upload.wikimedia.org/wikipedia/commons/d/db/Guimard_Nation_Dorian.jpg",
        "name": "Avenue Dorian",
        "note:fr": "Nation Métro",
        "railway": "subway_entrance",
        "ref": "2",
        "wheelchair": "no",
        "wikidata": "Q22922090"
      },
      "geometry": {
        "type": "Point",
        "coordinates": [
          2.395172,
          48.8477961
        ]
      },
      "id": "node/257081527"
    },
    {
      "type": "Feature",
      "properties": {
        "@id": "node/257082357",
        "check_date:wheelchair": "2022-08-23",
        "name": "Rue Notre-Dame des Champs",
        "railway": "subway_entrance",
        "ref": "1",
        "wheelchair": "no"
      },
      "geometry": {
        "type": "Point",
        "coordinates": [
          2.3269178,
          48.8468022
        ]
      },
      "id": "node/257082357"
    },
    {
      "type": "Feature",
      "properties": {
        "@id": "node/257510350",
        "name": "Boulevard Raspail",
        "railway": "subway_entrance",
        "ref": "3",
        "wheelchair": "no"
      },
      "geometry": {
        "type": "Point",
        "coordinates": [
          2.3265916,
          48.8515167
        ]
      },
      "id": "node/257510350"
    },
    {
      "type": "Feature",
      "properties": {
        "@id": "node/257512478",
        "name": "Boulevard Saint-Michel",
        "railway": "subway_entrance",
        "ref": "1",
        "wheelchair": "no"
      },
      "geometry": {
        "type": "Point",
        "coordinates": [
          2.3435268,
          48.8513956
        ]
      },
      "id": "node/257512478"
    },
    {
      "type": "Feature",
      "properties": {
        "@id": "node/257628954",
        "heritage": "3",
        "heritage:operator": "mhs",
        "level": "-1",
        "mhs:inscription_date": "1978",
        "name": "Fontaine Saint-Michel",
        "railway": "subway_entrance",
        "ref": "3",
        "ref:mhs": "PA00088648",
        "source:heritage": "data.gouv.fr:Ministère de la Culture - 08/2011",
        "wheelchair": "no",
        "wikidata": "Q22924604",
        "wikipedia": "fr:Saint-Michel (métro de Paris)"
      },
      "geometry": {
        "type": "Point",
        "coordinates": [
          2.3436351,
          48.8532876
        ]
      },
      "id": "node/257628954"
    },
    {
      "type": "Feature",
      "properties": {
        "@id": "node/257685747",
        "destination": "T3a;108;109;125;197;475;DM151",
        "name": "Place du 25 août 1944",
        "railway": "subway_entrance",
        "ref": "1",
        "source": "cadastre-dgi-fr source : Direction Générale des Impôts - Cadastre. Mise à jour : 2010",
        "wheelchair": "no"
      },
      "geometry": {
        "type": "Point",
        "coordinates": [
          2.3258708,
          48.8227168
        ]
      },
      "id": "node/257685747"
    },
    {
      "type": "Feature",
      "properties": {
        "@id": "node/257688323",
        "destination": "T3a;77;87;111",
        "name": "Avenue de la porte de Charenton (Stage Léo Lagrange)",
        "railway": "subway_entrance",
        "ref": "1",
        "wheelchair": "no"
      },
      "geometry": {
        "type": "Point",
        "coordinates": [
          2.3989508,
          48.8320057
        ]
      },
      "id": "node/257688323"
    },
    {
      "type": "Feature",
      "properties": {
        "@id": "node/257712544",
        "check_date:wheelchair": "2023-08-05",
        "exit": "yes",
        "name": "Boulevard Voltaire",
        "note": "Sortie uniquement.",
        "railway": "subway_entrance",
        "ref": "4",
        "wheelchair": "no"
      },
      "geometry": {
        "type": "Point",
        "coordinates": [
          2.3949173,
          48.8487305
        ]
      },
      "id": "node/257712544"
    },
    {
      "type": "Feature",
      "properties": {
        "@id": "node/258070259",
        "name": "Rue de Vaugirard",
        "railway": "subway_entrance",
        "ref": "1",
        "wheelchair": "no"
      },
      "geometry": {
        "type": "Point",
        "coordinates": [
          2.3123965,
          48.8430419
        ]
      },
      "id": "node/258070259"
    },
    {
      "type": "Feature",
      "properties": {
        "@id": "node/258885375",
        "artist_name": "Hector Guimard",
        "heritage": "3",
        "heritage:operator": "mhs",
        "mhs:inscription_date": "1978-05-29",
        "name": "Édicule Guimard",
        "railway": "subway_entrance",
        "ref:mhs": "PA00086748",
        "source:heritage": "data.gouv.fr:Ministère de la culture et de la communication - 05/2016",
        "wheelchair": "no",
        "wikidata": "Q306256",
        "wikipedia": "fr:Édicule Guimard"
      },
      "geometry": {
        "type": "Point",
        "coordinates": [
          2.3386516,
          48.8844588
        ]
      },
      "id": "node/258885375"
    },
    {
      "type": "Feature",
      "properties": {
        "@id": "node/259289360",
        "name": "Rue de la Convention",
        "railway": "subway_entrance",
        "ref": "1",
        "source": "survey",
        "wheelchair": "no"
      },
      "geometry": {
        "type": "Point",
        "coordinates": [
          2.2964219,
          48.8374176
        ]
      },
      "id": "node/259289360"
    },
    {
      "type": "Feature",
      "properties": {
        "@id": "node/259637347",
        "name": "Rue de Lobau (Bazar de l'Hôtel de Ville)",
        "railway": "subway_entrance",
        "ref": "6",
        "wheelchair": "no"
      },
      "geometry": {
        "type": "Point",
        "coordinates": [
          2.3534359,
          48.8568341
        ]
      },
      "id": "node/259637347"
    },
    {
      "type": "Feature",
      "properties": {
        "@id": "node/259637358",
        "name": "Hôtel de Ville",
        "railway": "subway_entrance",
        "ref": "5",
        "source": "cadastre-dgi-fr source : Direction Générale des Impôts - Cadastre. Mise à jour : 2010",
        "wheelchair": "no"
      },
      "geometry": {
        "type": "Point",
        "coordinates": [
          2.3522145,
          48.8571728
        ]
      },
      "id": "node/259637358"
    },
    {
      "type": "Feature",
      "properties": {
        "@id": "node/260232944",
        "name": "Avenue Félix Faure",
        "railway": "subway_entrance",
        "ref": "4",
        "source": "survey",
        "wheelchair": "no"
      },
      "geometry": {
        "type": "Point",
        "coordinates": [
          2.2789801,
          48.8368937
        ]
      },
      "id": "node/260232944"
    },
    {
      "type": "Feature",
      "properties": {
        "@id": "node/260232954",
        "check_date:wheelchair": "2024-06-09",
        "name": "Rue Balard (Hôpital Européen Georges Pompidou)",
        "railway": "subway_entrance",
        "ref": "3",
        "source": "survey",
        "wheelchair": "no"
      },
      "geometry": {
        "type": "Point",
        "coordinates": [
          2.278451,
          48.8369979
        ]
      },
      "id": "node/260232954"
    },
    {
      "type": "Feature",
      "properties": {
        "@id": "node/260232980",
        "destination": "T3a;48;69",
        "name": "Boulevard du Général Martial Valin (Ministère de la Défense)",
        "railway": "subway_entrance",
        "ref": "2",
        "wheelchair": "no"
      },
      "geometry": {
        "type": "Point",
        "coordinates": [
          2.2779984,
          48.8359473
        ]
      },
      "id": "node/260232980"
    },
    {
      "type": "Feature",
      "properties": {
        "@id": "node/260232981",
        "destination": "T3a;169;N145",
        "name": "Boulevard Victor",
        "railway": "subway_entrance",
        "ref": "1",
        "wheelchair": "no"
      },
      "geometry": {
        "type": "Point",
        "coordinates": [
          2.278332,
          48.8358725
        ]
      },
      "id": "node/260232981"
    },
    {
      "type": "Feature",
      "properties": {
        "@id": "node/261582407",
        "name": "Boulevard Morland (Préfecture de Paris, Mairie de Paris)",
        "railway": "subway_entrance",
        "ref": "1",
        "wheelchair": "no"
      },
      "geometry": {
        "type": "Point",
        "coordinates": [
          2.3624966,
          48.8510487
        ]
      },
      "id": "node/261582407"
    },
    {
      "type": "Feature",
      "properties": {
        "@id": "node/261582469",
        "name": "Boulevard Henri IV",
        "railway": "subway_entrance",
        "ref": "3",
        "wheelchair": "no"
      },
      "geometry": {
        "type": "Point",
        "coordinates": [
          2.3625022,
          48.8513469
        ]
      },
      "id": "node/261582469"
    },
    {
      "type": "Feature",
      "properties": {
        "@id": "node/264246761",
        "name": "Rue du Four",
        "railway": "subway_entrance",
        "ref": "2",
        "wheelchair": "no"
      },
      "geometry": {
        "type": "Point",
        "coordinates": [
          2.3313089,
          48.8516549
        ]
      },
      "id": "node/264246761"
    },
    {
      "type": "Feature",
      "properties": {
        "@id": "node/264258026",
        "destination": "24;57;63;65",
        "name": "Place Mazas",
        "railway": "subway_entrance",
        "ref": "1",
        "wheelchair": "no"
      },
      "geometry": {
        "type": "Point",
        "coordinates": [
          2.3665074,
          48.8461111
        ]
      },
      "id": "node/264258026"
    },
    {
      "type": "Feature",
      "properties": {
        "@id": "node/267157564",
        "name": "Rue de Miribel",
        "railway": "subway_entrance",
        "ref": "1",
        "wheelchair": "yes"
      },
      "geometry": {
        "type": "Point",
        "coordinates": [
          2.3515132,
          48.84062
        ]
      },
      "id": "node/267157564"
    },
    {
      "type": "Feature",
      "properties": {
        "@id": "node/268467107",
        "check_date:wheelchair": "2022-06-11",
        "name": "Rue de Tolbiac",
        "railway": "subway_entrance",
        "ref": "1",
        "wheelchair": "no"
      },
      "geometry": {
        "type": "Point",
        "coordinates": [
          2.357057,
          48.8263331
        ]
      },
      "id": "node/268467107"
    },
    {
      "type": "Feature",
      "properties": {
        "@id": "node/268467108",
        "check_date:wheelchair": "2022-06-11",
        "name": "Rue Toussaint-Féron",
        "railway": "subway_entrance",
        "ref": "3",
        "wheelchair": "no"
      },
      "geometry": {
        "type": "Point",
        "coordinates": [
          2.3574219,
          48.8264079
        ]
      },
      "id": "node/268467108"
    },
    {
      "type": "Feature",
      "properties": {
        "@id": "node/268467127",
        "check_date:wheelchair": "2022-06-11",
        "name": "Rue de la Maison Blanche",
        "railway": "subway_entrance",
        "ref": "4",
        "wheelchair": "no"
      },
      "geometry": {
        "type": "Point",
        "coordinates": [
          2.3575495,
          48.8260134
        ]
      },
      "id": "node/268467127"
    },
    {
      "type": "Feature",
      "properties": {
        "@id": "node/272269064",
        "check_date:wheelchair": "2022-06-05",
        "name": "Avenue Paul Doumer",
        "railway": "subway_entrance",
        "ref": "6",
        "source": "cadastre-dgi-fr source : Direction Générale des Impôts - Cadastre. Mise à jour : 2010",
        "wheelchair": "no"
      },
      "geometry": {
        "type": "Point",
        "coordinates": [
          2.28714,
          48.8621388
        ]
      },
      "id": "node/272269064"
    },
    {
      "type": "Feature",
      "properties": {
        "@id": "node/272269845",
        "level": "-1",
        "name": "Avenue du Président Wilson - Palais de Chaillot",
        "railway": "subway_entrance",
        "ref": "1",
        "source": "cadastre-dgi-fr source : Direction Générale des Impôts - Cadastre. Mise à jour : 2010",
        "toilets": "yes",
        "wheelchair": "no"
      },
      "geometry": {
        "type": "Point",
        "coordinates": [
          2.2884522,
          48.8630389
        ]
      },
      "id": "node/272269845"
    },
    {
      "type": "Feature",
      "properties": {
        "@id": "node/272269923",
        "name": "Avenue Raymond Poincaré",
        "railway": "subway_entrance",
        "ref": "3",
        "source": "cadastre-dgi-fr source : Direction Générale des Impôts - Cadastre. Mise à jour : 2010",
        "wheelchair": "no"
      },
      "geometry": {
        "type": "Point",
        "coordinates": [
          2.2871285,
          48.8635833
        ]
      },
      "id": "node/272269923"
    },
    {
      "type": "Feature",
      "properties": {
        "@id": "node/272270165",
        "name": "Avenue Georges Mandel",
        "railway": "subway_entrance",
        "ref": "4",
        "wheelchair": "no"
      },
      "geometry": {
        "type": "Point",
        "coordinates": [
          2.2863747,
          48.8632855
        ]
      },
      "id": "node/272270165"
    },
    {
      "type": "Feature",
      "properties": {
        "@id": "node/282085302",
        "check_date:wheelchair": "2022-03-17",
        "heritage": "3",
        "heritage:operator": "mhs",
        "mhs:inscription_date": "1978",
        "railway": "subway_entrance",
        "ref": "1",
        "ref:mhs": "PA00086630",
        "source": "data.gouv.fr:Ministère de la Culture - 08/2011",
        "wheelchair": "no",
        "wikidata": "Q1187054",
        "wikipedia": "fr:Denfert-Rochereau (métro de Paris)"
      },
      "geometry": {
        "type": "Point",
        "coordinates": [
          2.3319554,
          48.8341883
        ]
      },
      "id": "node/282085302"
    },
    {
      "type": "Feature",
      "properties": {
        "@id": "node/289051606",
        "check_date:wheelchair": "2022-06-12",
        "name": "Mairie du 13e",
        "railway": "subway_entrance",
        "ref": "4",
        "wheelchair": "no"
      },
      "geometry": {
        "type": "Point",
        "coordinates": [
          2.3555811,
          48.8321697
        ]
      },
      "id": "node/289051606"
    },
    {
      "type": "Feature",
      "properties": {
        "@id": "node/291530689",
        "check_date:wheelchair": "2022-08-23",
        "name": "Église Saint-Germain-des-Prés",
        "railway": "subway_entrance",
        "ref": "1",
        "wheelchair": "no"
      },
      "geometry": {
        "type": "Point",
        "coordinates": [
          2.3338993,
          48.853826
        ]
      },
      "id": "node/291530689"
    },
    {
      "type": "Feature",
      "properties": {
        "@id": "node/291530692",
        "check_date:wheelchair": "2022-08-23",
        "name": "Rue de Rennes",
        "railway": "subway_entrance",
        "ref": "2",
        "wheelchair": "no"
      },
      "geometry": {
        "type": "Point",
        "coordinates": [
          2.33376,
          48.8535934
        ]
      },
      "id": "node/291530692"
    },
    {
      "type": "Feature",
      "properties": {
        "@id": "node/299013756",
        "name": "Avenue de Wagram",
        "railway": "subway_entrance",
        "ref": "4",
        "wheelchair": "no"
      },
      "geometry": {
        "type": "Point",
        "coordinates": [
          2.2954193,
          48.8747054
        ]
      },
      "id": "node/299013756"
    },
    {
      "type": "Feature",
      "properties": {
        "@id": "node/299668084",
        "door": "no",
        "entrance": "yes",
        "level": "-0.5",
        "name": "Rue Saint-Martin",
        "railway": "subway_entrance",
        "ref": "19",
        "source": "cadastre-dgi-fr source : Direction Générale des Impôts - Cadastre. Mise à jour : 2010",
        "wheelchair": "no"
      },
      "geometry": {
        "type": "Point",
        "coordinates": [
          2.3493934,
          48.8571645
        ]
      },
      "id": "node/299668084"
    },
    {
      "type": "Feature",
      "properties": {
        "@id": "node/301366739",
        "check_date:wheelchair": "2024-04-29",
        "name": "Place du Général-Catroux",
        "railway": "subway_entrance",
        "ref": "1",
        "wheelchair": "no"
      },
      "geometry": {
        "type": "Point",
        "coordinates": [
          2.3090879,
          48.8830956
        ]
      },
      "id": "node/301366739"
    },
    {
      "type": "Feature",
      "properties": {
        "@id": "node/310044380",
        "check_date:wheelchair": "2024-03-19",
        "name": "Rue de Vaugirard",
        "railway": "subway_entrance",
        "ref": "2",
        "source": "survey",
        "wheelchair": "no"
      },
      "geometry": {
        "type": "Point",
        "coordinates": [
          2.2967701,
          48.8372561
        ]
      },
      "id": "node/310044380"
    },
    {
      "type": "Feature",
      "properties": {
        "@id": "node/320800100",
        "name": "Rue de Rivoli",
        "railway": "subway_entrance",
        "ref": "1",
        "source": "survey",
        "wheelchair": "no"
      },
      "geometry": {
        "type": "Point",
        "coordinates": [
          2.351738,
          48.857502
        ]
      },
      "id": "node/320800100"
    },
    {
      "type": "Feature",
      "properties": {
        "@id": "node/320952594",
        "check_date:wheelchair": "2022-03-17",
        "railway": "subway_entrance",
        "ref": "2",
        "wheelchair": "no"
      },
      "geometry": {
        "type": "Point",
        "coordinates": [
          2.331846,
          48.8334346
        ]
      },
      "id": "node/320952594"
    },
    {
      "type": "Feature",
      "properties": {
        "@id": "node/320952633",
        "railway": "subway_entrance",
        "ref": "2"
      },
      "geometry": {
        "type": "Point",
        "coordinates": [
          2.340532,
          48.8465305
        ]
      },
      "id": "node/320952633"
    },
    {
      "type": "Feature",
      "properties": {
        "@id": "node/321203628",
        "check_date:wheelchair": "2022-06-12",
        "level": "-1",
        "name": "Boulevard Vincent Auriol",
        "railway": "subway_entrance",
        "ref": "3",
        "wheelchair": "no"
      },
      "geometry": {
        "type": "Point",
        "coordinates": [
          2.3565906,
          48.831167
        ]
      },
      "id": "node/321203628"
    },
    {
      "type": "Feature",
      "properties": {
        "@id": "node/321209761",
        "check_date:wheelchair": "2022-06-11",
        "name": "Centre Commercial Italie 2",
        "railway": "subway_entrance",
        "ref": "2",
        "wheelchair": "no"
      },
      "geometry": {
        "type": "Point",
        "coordinates": [
          2.3553618,
          48.8308087
        ]
      },
      "id": "node/321209761"
    },
    {
      "type": "Feature",
      "properties": {
        "@id": "node/325105739",
        "name": "Rue Saint-Hubert",
        "railway": "subway_entrance",
        "ref": "3",
        "wheelchair": "no"
      },
      "geometry": {
        "type": "Point",
        "coordinates": [
          2.3806778,
          48.8640178
        ]
      },
      "id": "node/325105739"
    },
    {
      "type": "Feature",
      "properties": {
        "@id": "node/329991820",
        "level": "-1",
        "railway": "subway_entrance",
        "wheelchair": "no"
      },
      "geometry": {
        "type": "Point",
        "coordinates": [
          2.3548795,
          48.8797363
        ]
      },
      "id": "node/329991820"
    },
    {
      "type": "Feature",
      "properties": {
        "@id": "node/330049077",
        "destination": "bus",
        "name": "Boulevard Diderot",
        "railway": "subway_entrance",
        "ref": "1",
        "wheelchair": "no"
      },
      "geometry": {
        "type": "Point",
        "coordinates": [
          2.372997,
          48.8456487
        ]
      },
      "id": "node/330049077"
    },
    {
      "type": "Feature",
      "properties": {
        "@id": "node/330261792",
        "name": "Opéra Bastille",
        "railway": "subway_entrance",
        "ref": "3"
      },
      "geometry": {
        "type": "Point",
        "coordinates": [
          2.3697693,
          48.8525133
        ]
      },
      "id": "node/330261792"
    },
    {
      "type": "Feature",
      "properties": {
        "@id": "node/330413172",
        "name": "Rue Vandamme",
        "railway": "subway_entrance",
        "ref": "4",
        "wheelchair": "no"
      },
      "geometry": {
        "type": "Point",
        "coordinates": [
          2.3226,
          48.8387552
        ]
      },
      "id": "node/330413172"
    },
    {
      "type": "Feature",
      "properties": {
        "@id": "node/330413289",
        "check_date:wheelchair": "2022-04-16",
        "name": "Avenue du Maine",
        "railway": "subway_entrance",
        "ref": "3",
        "wheelchair": "no"
      },
      "geometry": {
        "type": "Point",
        "coordinates": [
          2.3221312,
          48.8386756
        ]
      },
      "id": "node/330413289"
    },
    {
      "type": "Feature",
      "properties": {
        "@id": "node/330414112",
        "level": "-1",
        "name": "Tour Montparnasse",
        "opening_hours": "06:30-20:30",
        "railway": "subway_entrance",
        "ref": "4",
        "wheelchair": "no"
      },
      "geometry": {
        "type": "Point",
        "coordinates": [
          2.3215611,
          48.8416963
        ]
      },
      "id": "node/330414112"
    },
    {
      "type": "Feature",
      "properties": {
        "@id": "node/332327414",
        "check_date:wheelchair": "2022-03-17",
        "name": "Rue Daguerre",
        "railway": "subway_entrance",
        "ref": "2",
        "wheelchair": "no"
      },
      "geometry": {
        "type": "Point",
        "coordinates": [
          2.3315882,
          48.8335185
        ]
      },
      "id": "node/332327414"
    },
    {
      "type": "Feature",
      "properties": {
        "@id": "node/340394541",
        "name": "Rue Michel Chasles",
        "railway": "subway_entrance",
        "ref": "3",
        "wheelchair": "no"
      },
      "geometry": {
        "type": "Point",
        "coordinates": [
          2.373784,
          48.8460183
        ]
      },
      "id": "node/340394541"
    },
    {
      "type": "Feature",
      "properties": {
        "@id": "node/344345438",
        "name": "Boulevard Sérurier (Hôpital Robert Debré)",
        "railway": "subway_entrance",
        "ref": "4",
        "wheelchair": "no"
      },
      "geometry": {
        "type": "Point",
        "coordinates": [
          2.4064179,
          48.8772762
        ]
      },
      "id": "node/344345438"
    },
    {
      "type": "Feature",
      "properties": {
        "@id": "node/344345682",
        "name": "Rue de Belleville",
        "railway": "subway_entrance",
        "ref": "3",
        "wheelchair": "no"
      },
      "geometry": {
        "type": "Point",
        "coordinates": [
          2.406269,
          48.8769205
        ]
      },
      "id": "node/344345682"
    },
    {
      "type": "Feature",
      "properties": {
        "@id": "node/344346236",
        "name": "Rue de Belleville",
        "railway": "subway_entrance",
        "ref": "2",
        "station": "Télégraphe",
        "wheelchair": "no"
      },
      "geometry": {
        "type": "Point",
        "coordinates": [
          2.398859,
          48.8755422
        ]
      },
      "id": "node/344346236"
    },
    {
      "type": "Feature",
      "properties": {
        "@id": "node/344346704",
        "name": "Cimetière de Belleville",
        "railway": "subway_entrance",
        "ref": "3",
        "wheelchair": "no"
      },
      "geometry": {
        "type": "Point",
        "coordinates": [
          2.3992221,
          48.8754127
        ]
      },
      "id": "node/344346704"
    },
    {
      "type": "Feature",
      "properties": {
        "@id": "node/344347112",
        "name": "Rue de Crimée",
        "railway": "subway_entrance",
        "ref": "2",
        "wheelchair": "no"
      },
      "geometry": {
        "type": "Point",
        "coordinates": [
          2.3926986,
          48.8767705
        ]
      },
      "id": "node/344347112"
    },
    {
      "type": "Feature",
      "properties": {
        "@id": "node/344347196",
        "name": "Place des Fêtes",
        "railway": "subway_entrance",
        "ref": "1",
        "wheelchair": "no"
      },
      "geometry": {
        "type": "Point",
        "coordinates": [
          2.3936936,
          48.8769303
        ]
      },
      "id": "node/344347196"
    },
    {
      "type": "Feature",
      "properties": {
        "@id": "node/361259581",
        "check_date:wheelchair": "2022-03-17",
        "railway": "subway_entrance",
        "ref": "2",
        "source": "cadastre-dgi-fr source : Direction Générale des Impôts - Cadastre. Mise à jour : 2009",
        "wheelchair": "no"
      },
      "geometry": {
        "type": "Point",
        "coordinates": [
          2.3315133,
          48.8334316
        ]
      },
      "id": "node/361259581"
    },
    {
      "type": "Feature",
      "properties": {
        "@id": "node/411533639",
        "artist:wikipedia": "fr:Édicule Guimard",
        "check_date:wheelchair": "2024-04-06",
        "heritage": "3",
        "heritage:operator": "mhs",
        "mhs:inscription_date": "1978",
        "name": "Place Jacques et Thérèse Tréfouel",
        "railway": "subway_entrance",
        "ref": "2",
        "ref:mhs": "PA00086657",
        "source:heritage": "data.gouv.fr:Ministère de la Culture - 08/2011",
        "wheelchair": "no",
        "wikidata": "Q1578103"
      },
      "geometry": {
        "type": "Point",
        "coordinates": [
          2.3127855,
          48.8426381
        ]
      },
      "id": "node/411533639"
    },
    {
      "type": "Feature",
      "properties": {
        "@id": "node/426216986",
        "layer": "-1",
        "level": "-1",
        "name": "Place Bienvenüe",
        "railway": "subway_entrance",
        "ref": "2",
        "wheelchair": "no"
      },
      "geometry": {
        "type": "Point",
        "coordinates": [
          2.3204086,
          48.842572
        ]
      },
      "id": "node/426216986"
    },
    {
      "type": "Feature",
      "properties": {
        "@id": "node/428042517",
        "name": "Rue du Faubourg Saint-Antoine",
        "railway": "subway_entrance",
        "ref": "2",
        "wheelchair": "no"
      },
      "geometry": {
        "type": "Point",
        "coordinates": [
          2.3762891,
          48.8511843
        ]
      },
      "id": "node/428042517"
    },
    {
      "type": "Feature",
      "properties": {
        "@id": "node/428042536",
        "name": "Avenue Ledru-Rollin",
        "railway": "subway_entrance",
        "ref": "1",
        "wheelchair": "no"
      },
      "geometry": {
        "type": "Point",
        "coordinates": [
          2.3763195,
          48.8514252
        ]
      },
      "id": "node/428042536"
    },
    {
      "type": "Feature",
      "properties": {
        "@id": "node/428042803",
        "name": "Rue du Faubourg Saint-Antoine",
        "railway": "subway_entrance",
        "ref": "3",
        "wheelchair": "no"
      },
      "geometry": {
        "type": "Point",
        "coordinates": [
          2.3825904,
          48.8503937
        ]
      },
      "id": "node/428042803"
    },
    {
      "type": "Feature",
      "properties": {
        "@id": "node/429489036",
        "name": "Boulevard Saint-Marcel",
        "railway": "subway_entrance",
        "ref": "1",
        "wheelchair": "no"
      },
      "geometry": {
        "type": "Point",
        "coordinates": [
          2.3522676,
          48.8364598
        ]
      },
      "id": "node/429489036"
    },
    {
      "type": "Feature",
      "properties": {
        "@id": "node/440749834",
        "heritage": "3",
        "heritage:operator": "mhs",
        "mhs:inscription_date": "1978",
        "name": "Rue Saint-Maur",
        "railway": "subway_entrance",
        "ref": "1",
        "ref:mhs": "PA00086552",
        "source:heritage": "data.gouv.fr:Ministère de la Culture - 08/2011",
        "wheelchair": "no",
        "wikidata": "Q1315757",
        "wikipedia": "fr:Rue Saint-Maur (métro de Paris)"
      },
      "geometry": {
        "type": "Point",
        "coordinates": [
          2.3786389,
          48.8643964
        ]
      },
      "id": "node/440749834"
    },
    {
      "type": "Feature",
      "properties": {
        "@id": "node/440749838",
        "heritage": "3",
        "heritage:operator": "mhs",
        "mhs:inscription_date": "1978",
        "name": "Avenue Parmentier",
        "railway": "subway_entrance",
        "ref": "1",
        "ref:mhs": "PA00086548",
        "source:heritage": "data.gouv.fr:Ministère de la Culture - 08/2011",
        "wheelchair": "no"
      },
      "geometry": {
        "type": "Point",
        "coordinates": [
          2.374578,
          48.8654474
        ]
      },
      "id": "node/440749838"
    },
    {
      "type": "Feature",
      "properties": {
        "@id": "node/440750969",
        "check_date:wheelchair": "2024-02-21",
        "name": "Avenue de la République",
        "railway": "subway_entrance",
        "ref": "3",
        "wheelchair": "no"
      },
      "geometry": {
        "type": "Point",
        "coordinates": [
          2.364695,
          48.8676362
        ]
      },
      "id": "node/440750969"
    },
    {
      "type": "Feature",
      "properties": {
        "@id": "node/480690053",
        "name": "Rue Nationale",
        "railway": "subway_entrance",
        "ref": "1",
        "wheelchair": "yes"
      },
      "geometry": {
        "type": "Point",
        "coordinates": [
          2.3663768,
          48.8269072
        ]
      },
      "id": "node/480690053"
    },
    {
      "type": "Feature",
      "properties": {
        "@id": "node/489458449",
        "check_date:wheelchair": "2024-04-05",
        "level": "-1",
        "name": "Place Saint-André-des-Arts",
        "railway": "subway_entrance",
        "ref": "4",
        "source": "cadastre-dgi-fr source : Direction Générale des Impôts - Cadastre. Mise à jour : 2008",
        "wheelchair": "no",
        "wikidata": "Q22924604"
      },
      "geometry": {
        "type": "Point",
        "coordinates": [
          2.3427038,
          48.8531462
        ]
      },
      "id": "node/489458449"
    },
    {
      "type": "Feature",
      "properties": {
        "@id": "node/492858180",
        "description": "Cour Saint-Émilion",
        "name": "Passage Saint-Émilion (Bercy-village)",
        "railway": "subway_entrance",
        "ref": "1",
        "wheelchair": "no"
      },
      "geometry": {
        "type": "Point",
        "coordinates": [
          2.3860132,
          48.8335641
        ]
      },
      "id": "node/492858180"
    },
    {
      "type": "Feature",
      "properties": {
        "@id": "node/492871757",
        "layer": "1",
        "name": "Rue Guy Patin",
        "railway": "subway_entrance",
        "ref": "5",
        "wheelchair": "yes"
      },
      "geometry": {
        "type": "Point",
        "coordinates": [
          2.3511273,
          48.8838119
        ]
      },
      "id": "node/492871757"
    },
    {
      "type": "Feature",
      "properties": {
        "@id": "node/492871764",
        "layer": "1",
        "name": "Boulevard Barbès",
        "railway": "subway_entrance",
        "ref": "3",
        "wheelchair": "no"
      },
      "geometry": {
        "type": "Point",
        "coordinates": [
          2.3497899,
          48.8837627
        ]
      },
      "id": "node/492871764"
    },
    {
      "type": "Feature",
      "properties": {
        "@id": "node/493340479",
        "check_date:wheelchair": "2024-03-20",
        "name": "Rue des Wallons",
        "railway": "subway_entrance",
        "ref": "2",
        "wheelchair": "no"
      },
      "geometry": {
        "type": "Point",
        "coordinates": [
          2.3605884,
          48.8385352
        ]
      },
      "id": "node/493340479"
    },
    {
      "type": "Feature",
      "properties": {
        "@id": "node/493340480",
        "check_date:wheelchair": "2024-03-20",
        "heritage": "3",
        "heritage:operator": "mhs",
        "mhs:inscription_date": "1978",
        "name": "Boulevard de la Salpetrière",
        "railway": "subway_entrance",
        "ref": "1",
        "ref:mhs": "PA00086601",
        "source:heritage": "data.gouv.fr:Ministère de la Culture - 08/2011",
        "wheelchair": "no",
        "wikidata": "Q587093",
        "wikipedia": "fr:Saint-Marcel (métro de Paris)"
      },
      "geometry": {
        "type": "Point",
        "coordinates": [
          2.3608585,
          48.8384373
        ]
      },
      "id": "node/493340480"
    },
    {
      "type": "Feature",
      "properties": {
        "@id": "node/493342820",
        "name": "Boulevard de l'Hôpital",
        "railway": "subway_entrance",
        "ref": "1",
        "wheelchair": "no"
      },
      "geometry": {
        "type": "Point",
        "coordinates": [
          2.3642122,
          48.8428983
        ]
      },
      "id": "node/493342820"
    },
    {
      "type": "Feature",
      "properties": {
        "@id": "node/493729417",
        "name": "Rue d'Avron",
        "railway": "subway_entrance",
        "ref": "2",
        "wheelchair": "no"
      },
      "geometry": {
        "type": "Point",
        "coordinates": [
          2.4011252,
          48.8517567
        ]
      },
      "id": "node/493729417"
    },
    {
      "type": "Feature",
      "properties": {
        "@id": "node/500255573",
        "name": "Rue Claude Decaen, côté des n° pairs",
        "railway": "subway_entrance",
        "ref": "2",
        "wheelchair": "no"
      },
      "geometry": {
        "type": "Point",
        "coordinates": [
          2.3960694,
          48.8392173
        ]
      },
      "id": "node/500255573"
    },
    {
      "type": "Feature",
      "properties": {
        "@id": "node/506323872",
        "check_date:wheelchair": "2024-02-18",
        "name": "Avenue d'Italie",
        "railway": "subway_entrance",
        "ref": "3",
        "source": "cadastre-dgi-fr source : Direction Générale des Impôts - Cadastre;mise à jour : 2009",
        "wheelchair": "no"
      },
      "geometry": {
        "type": "Point",
        "coordinates": [
          2.3592576,
          48.8193833
        ]
      },
      "id": "node/506323872"
    },
    {
      "type": "Feature",
      "properties": {
        "@id": "node/506323873",
        "name": "Boulevard Masséna",
        "railway": "subway_entrance",
        "ref": "2",
        "source": "cadastre-dgi-fr source : Direction Générale des Impôts - Cadastre ; mise à jour : 2009",
        "wheelchair": "no"
      },
      "geometry": {
        "type": "Point",
        "coordinates": [
          2.3597878,
          48.8192576
        ]
      },
      "id": "node/506323873"
    },
    {
      "type": "Feature",
      "properties": {
        "@id": "node/506323874",
        "name": "Rue Fernand Widal",
        "railway": "subway_entrance",
        "ref": "4",
        "source": "cadastre-dgi-fr source : Direction Générale des Impôts - Cadastre;mise à jour : 2009",
        "wheelchair": "no"
      },
      "geometry": {
        "type": "Point",
        "coordinates": [
          2.3606714,
          48.8188665
        ]
      },
      "id": "node/506323874"
    },
    {
      "type": "Feature",
      "properties": {
        "@id": "node/507051806",
        "check_date:wheelchair": "2022-09-15",
        "name": "Rue de Rennes",
        "railway": "subway_entrance",
        "ref": "2",
        "wheelchair": "no"
      },
      "geometry": {
        "type": "Point",
        "coordinates": [
          2.32695,
          48.8472183
        ]
      },
      "id": "node/507051806"
    },
    {
      "type": "Feature",
      "properties": {
        "@id": "node/507192777",
        "check_date:wheelchair": "2022-06-11",
        "name": "Rue de la Maison Blanche",
        "railway": "subway_entrance",
        "ref": "4",
        "source": "cadastre-dgi-fr source : Direction Générale des Impôts - Cadastre ; mise à jour : 2009",
        "wheelchair": "no"
      },
      "geometry": {
        "type": "Point",
        "coordinates": [
          2.3575692,
          48.8259512
        ]
      },
      "id": "node/507192777"
    },
    {
      "type": "Feature",
      "properties": {
        "@id": "node/507192781",
        "check_date:wheelchair": "2022-06-11",
        "name": "Rue Toussaint-Féron",
        "railway": "subway_entrance",
        "ref": "3",
        "source": "cadastre-dgi-fr source : Direction Générale des Impôts - Cadastre ; mise à jour : 2009",
        "wheelchair": "no"
      },
      "geometry": {
        "type": "Point",
        "coordinates": [
          2.3574007,
          48.8264678
        ]
      },
      "id": "node/507192781"
    },
    {
      "type": "Feature",
      "properties": {
        "@id": "node/507192783",
        "check_date:wheelchair": "2022-06-11",
        "name": "Rue de Tolbiac",
        "railway": "subway_entrance",
        "ref": "1",
        "source": "cadastre-dgi-fr source : Direction Générale des Impôts - Cadastre ; mise à jour : 2009",
        "wheelchair": "no"
      },
      "geometry": {
        "type": "Point",
        "coordinates": [
          2.3570386,
          48.8263906
        ]
      },
      "id": "node/507192783"
    },
    {
      "type": "Feature",
      "properties": {
        "@id": "node/510502429",
        "check_date:wheelchair": "2024-03-29",
        "name": "Rue du Faubourg du Temple",
        "railway": "subway_entrance",
        "ref": "4",
        "wheelchair": "no"
      },
      "geometry": {
        "type": "Point",
        "coordinates": [
          2.3644978,
          48.8678775
        ]
      },
      "id": "node/510502429"
    },
    {
      "type": "Feature",
      "properties": {
        "@id": "node/510502438",
        "name": "Place de la République",
        "railway": "subway_entrance",
        "ref": "1",
        "wheelchair": "no"
      },
      "geometry": {
        "type": "Point",
        "coordinates": [
          2.3641234,
          48.8673234
        ]
      },
      "id": "node/510502438"
    },
    {
      "type": "Feature",
      "properties": {
        "@id": "node/510509968",
        "name": "Rue du Temple",
        "railway": "subway_entrance",
        "ref": "2",
        "wheelchair": "no"
      },
      "geometry": {
        "type": "Point",
        "coordinates": [
          2.3636138,
          48.8669874
        ]
      },
      "id": "node/510509968"
    },
    {
      "type": "Feature",
      "properties": {
        "@id": "node/516212583",
        "level": "-1",
        "railway": "subway_entrance",
        "wheelchair": "no"
      },
      "geometry": {
        "type": "Point",
        "coordinates": [
          2.3544807,
          48.8797847
        ]
      },
      "id": "node/516212583"
    },
    {
      "type": "Feature",
      "properties": {
        "@id": "node/518318991",
        "name": "Boulevard Ney",
        "railway": "subway_entrance",
        "ref": "2",
        "wheelchair": "no"
      },
      "geometry": {
        "type": "Point",
        "coordinates": [
          2.3449832,
          48.897645
        ]
      },
      "id": "node/518318991"
    },
    {
      "type": "Feature",
      "properties": {
        "@id": "node/518319000",
        "check_date:wheelchair": "2024-05-21",
        "name": "Rue Belliard, Boulevard Ney (Marché aux puces de Saint-Ouen)",
        "railway": "subway_entrance",
        "ref": "1",
        "wheelchair": "no"
      },
      "geometry": {
        "type": "Point",
        "coordinates": [
          2.3443133,
          48.8975296
        ]
      },
      "id": "node/518319000"
    },
    {
      "type": "Feature",
      "properties": {
        "@id": "node/518319017",
        "name": "Boulevard Barbès",
        "railway": "subway_entrance",
        "ref": "1",
        "wheelchair": "no"
      },
      "geometry": {
        "type": "Point",
        "coordinates": [
          2.3494467,
          48.8906307
        ]
      },
      "id": "node/518319017"
    },
    {
      "type": "Feature",
      "properties": {
        "@id": "node/518319019",
        "name": "Rue Marcadet",
        "railway": "subway_entrance",
        "ref": "2",
        "wheelchair": "no"
      },
      "geometry": {
        "type": "Point",
        "coordinates": [
          2.3497679,
          48.8906414
        ]
      },
      "id": "node/518319019"
    },
    {
      "type": "Feature",
      "properties": {
        "@id": "node/518319020",
        "check_date:wheelchair": "2024-04-01",
        "name": "Rue des Poissonniers",
        "railway": "subway_entrance",
        "ref": "4",
        "wheelchair": "no"
      },
      "geometry": {
        "type": "Point",
        "coordinates": [
          2.351843,
          48.8912254
        ]
      },
      "id": "node/518319020"
    },
    {
      "type": "Feature",
      "properties": {
        "@id": "node/518319021",
        "check_date:wheelchair": "2024-04-01",
        "name": "Rue Ordener",
        "railway": "subway_entrance",
        "ref": "5",
        "wheelchair": "no"
      },
      "geometry": {
        "type": "Point",
        "coordinates": [
          2.3520374,
          48.8911886
        ]
      },
      "id": "node/518319021"
    },
    {
      "type": "Feature",
      "properties": {
        "@id": "node/518319022",
        "check_date:wheelchair": "2023-11-28",
        "railway": "subway_entrance",
        "wheelchair": "no"
      },
      "geometry": {
        "type": "Point",
        "coordinates": [
          2.3475805,
          48.8939043
        ]
      },
      "id": "node/518319022"
    },
    {
      "type": "Feature",
      "properties": {
        "@id": "node/518319038",
        "railway": "subway_entrance",
        "wheelchair": "yes"
      },
      "geometry": {
        "type": "Point",
        "coordinates": [
          2.3386592,
          48.8898254
        ]
      },
      "id": "node/518319038"
    },
    {
      "type": "Feature",
      "properties": {
        "@id": "node/518330210",
        "name": "Rue Biot",
        "railway": "subway_entrance",
        "ref": "1",
        "wheelchair": "no"
      },
      "geometry": {
        "type": "Point",
        "coordinates": [
          2.327021,
          48.8837232
        ]
      },
      "id": "node/518330210"
    },
    {
      "type": "Feature",
      "properties": {
        "@id": "node/518330215",
        "name": "La Fourche",
        "railway": "subway_entrance",
        "ref": "1",
        "survey:date": "2017-07-04",
        "wheelchair": "no"
      },
      "geometry": {
        "type": "Point",
        "coordinates": [
          2.3254912,
          48.8876267
        ]
      },
      "id": "node/518330215"
    },
    {
      "type": "Feature",
      "properties": {
        "@id": "node/518330220",
        "level": "-1",
        "name": "Rue Lamarck",
        "railway": "subway_entrance",
        "ref": "4",
        "wheelchair": "no"
      },
      "geometry": {
        "type": "Point",
        "coordinates": [
          2.3270774,
          48.8916189
        ]
      },
      "id": "node/518330220"
    },
    {
      "type": "Feature",
      "properties": {
        "@id": "node/518330229",
        "name": "Avenue de Saint-Ouen",
        "railway": "subway_entrance",
        "ref": "3",
        "wheelchair": "no"
      },
      "geometry": {
        "type": "Point",
        "coordinates": [
          2.3275148,
          48.8929401
        ]
      },
      "id": "node/518330229"
    },
    {
      "type": "Feature",
      "properties": {
        "@id": "node/518330273",
        "artist:wikipedia": "fr:Édicule Guimard",
        "heritage": "3",
        "heritage:operator": "mhs",
        "name": "Place de Clichy",
        "railway": "subway_entrance",
        "ref": "2",
        "ref:mhs": "PA00086753",
        "survey:date": "2017-07-04",
        "wheelchair": "no",
        "wikidata": "Q610012"
      },
      "geometry": {
        "type": "Point",
        "coordinates": [
          2.3278672,
          48.8835931
        ]
      },
      "id": "node/518330273"
    },
    {
      "type": "Feature",
      "properties": {
        "@id": "node/528073182",
        "name": "Place Jussieu",
        "railway": "subway_entrance",
        "ref": "1",
        "source": "cadastre-dgi-fr source : Direction Générale des Impôts - Cadastre ; mise à jour : 2009",
        "wheelchair": "no"
      },
      "geometry": {
        "type": "Point",
        "coordinates": [
          2.3547535,
          48.846042
        ]
      },
      "id": "node/528073182"
    },
    {
      "type": "Feature",
      "properties": {
        "@id": "node/543538283",
        "name": "Rue de Sully",
        "railway": "subway_entrance",
        "ref": "2",
        "wheelchair": "no"
      },
      "geometry": {
        "type": "Point",
        "coordinates": [
          2.3628603,
          48.8511631
        ]
      },
      "id": "node/543538283"
    },
    {
      "type": "Feature",
      "properties": {
        "@id": "node/556332877",
        "destination": "T3a;83",
        "name": "Avenue d'Ivry (Centre Commercial)",
        "railway": "subway_entrance",
        "ref": "2",
        "wheelchair": "no"
      },
      "geometry": {
        "type": "Point",
        "coordinates": [
          2.3687565,
          48.8216104
        ]
      },
      "id": "node/556332877"
    },
    {
      "type": "Feature",
      "properties": {
        "@id": "node/556332902",
        "destination": "T3a;27;83",
        "name": "Boulevard Masséna",
        "railway": "subway_entrance",
        "ref": "1",
        "wheelchair": "no"
      },
      "geometry": {
        "type": "Point",
        "coordinates": [
          2.369737,
          48.821521
        ]
      },
      "id": "node/556332902"
    },
    {
      "type": "Feature",
      "properties": {
        "@id": "node/573452382",
        "name": "Boulevard Beaumarchais, Rue du Chemin Vert",
        "railway": "subway_entrance",
        "ref": "2",
        "toilets:wheelchair": "no",
        "wheelchair": "no"
      },
      "geometry": {
        "type": "Point",
        "coordinates": [
          2.3682581,
          48.8574145
        ]
      },
      "id": "node/573452382"
    },
    {
      "type": "Feature",
      "properties": {
        "@id": "node/577328472",
        "check_date:wheelchair": "2022-03-19",
        "name": "Rue du Faubourg Saint-Denis",
        "railway": "subway_entrance",
        "ref": "1",
        "wheelchair": "no"
      },
      "geometry": {
        "type": "Point",
        "coordinates": [
          2.3569869,
          48.879442
        ]
      },
      "id": "node/577328472"
    },
    {
      "type": "Feature",
      "properties": {
        "@id": "node/589485666",
        "check_date:wheelchair": "2021-10-06",
        "name": "Avenue du Trône",
        "railway": "subway_entrance",
        "ref": "1",
        "wheelchair": "no"
      },
      "geometry": {
        "type": "Point",
        "coordinates": [
          2.3969044,
          48.8477707
        ]
      },
      "id": "node/589485666"
    },
    {
      "type": "Feature",
      "properties": {
        "@id": "node/589485669",
        "name": "Avenue de Taillebourg",
        "railway": "subway_entrance",
        "ref": "5",
        "wheelchair": "no"
      },
      "geometry": {
        "type": "Point",
        "coordinates": [
          2.3970075,
          48.848882
        ]
      },
      "id": "node/589485669"
    },
    {
      "type": "Feature",
      "properties": {
        "@id": "node/597275537",
        "name": "Boulevard Berthier",
        "railway": "subway_entrance",
        "ref": "1",
        "wheelchair": "no"
      },
      "geometry": {
        "type": "Point",
        "coordinates": [
          2.3136508,
          48.8942004
        ]
      },
      "id": "node/597275537"
    },
    {
      "type": "Feature",
      "properties": {
        "@id": "node/602612813",
        "check_date:wheelchair": "2022-09-09",
        "name": "Place Sainte-Opportune",
        "railway": "subway_entrance",
        "ref": "10",
        "source": "cadastre-dgi-fr source : Direction Générale des Impôts - Cadastre. Mise à jour : 2010",
        "wheelchair": "no"
      },
      "geometry": {
        "type": "Point",
        "coordinates": [
          2.3470161,
          48.8595876
        ]
      },
      "id": "node/602612813"
    },
    {
      "type": "Feature",
      "properties": {
        "@id": "node/619119414",
        "name": "Boulevard Voltaire",
        "railway": "subway_entrance",
        "ref": "1",
        "source": "cadastre-dgi-fr source : Direction Générale des Impôts - Cadastre. Mise à jour : 2010",
        "wheelchair": "no"
      },
      "geometry": {
        "type": "Point",
        "coordinates": [
          2.3721742,
          48.8602762
        ]
      },
      "id": "node/619119414"
    },
    {
      "type": "Feature",
      "properties": {
        "@id": "node/621448411",
        "name": "Rue Belliard",
        "railway": "subway_entrance",
        "ref": "3",
        "wheelchair": "no"
      },
      "geometry": {
        "type": "Point",
        "coordinates": [
          2.3449756,
          48.8975375
        ]
      },
      "id": "node/621448411"
    },
    {
      "type": "Feature",
      "properties": {
        "@id": "node/621984609",
        "name": "Rue Letort",
        "railway": "subway_entrance",
        "ref": "4",
        "wheelchair": "no"
      },
      "geometry": {
        "type": "Point",
        "coordinates": [
          2.3446441,
          48.8973678
        ]
      },
      "id": "node/621984609"
    },
    {
      "type": "Feature",
      "properties": {
        "@id": "node/663713699",
        "door": "no",
        "entrance": "main",
        "level": "0",
        "name": "Porte Saint-Eustache",
        "railway": "subway_entrance",
        "ref": "5",
        "wheelchair": "no",
        "wikidata": "Q3398947"
      },
      "geometry": {
        "type": "Point",
        "coordinates": [
          2.3456147,
          48.8629498
        ]
      },
      "id": "node/663713699"
    },
    {
      "type": "Feature",
      "properties": {
        "@id": "node/664043203",
        "bicycle": "no",
        "name": "Rue Réaumur",
        "railway": "subway_entrance",
        "ref": "4",
        "source": "cadastre-dgi-fr source : Direction Générale des Impôts - Cadastre. Mise à jour : 2010",
        "wheelchair": "no"
      },
      "geometry": {
        "type": "Point",
        "coordinates": [
          2.3555429,
          48.8654619
        ]
      },
      "id": "node/664043203"
    },
    {
      "type": "Feature",
      "properties": {
        "@id": "node/667338297",
        "name": "Rue du Grenier Saint-Lazare",
        "railway": "subway_entrance",
        "ref": "4",
        "wheelchair": "no"
      },
      "geometry": {
        "type": "Point",
        "coordinates": [
          2.3540531,
          48.8626116
        ]
      },
      "id": "node/667338297"
    },
    {
      "type": "Feature",
      "properties": {
        "@id": "node/667338362",
        "check_date:wheelchair": "2021-11-22",
        "name": "Boulevard Saint-Jacques",
        "railway": "subway_entrance",
        "ref": "1",
        "wheelchair": "no"
      },
      "geometry": {
        "type": "Point",
        "coordinates": [
          2.3365698,
          48.8330406
        ]
      },
      "id": "node/667338362"
    },
    {
      "type": "Feature",
      "properties": {
        "@id": "node/667342369",
        "name": "Rue de Belleville",
        "railway": "subway_entrance",
        "ref": "2",
        "wheelchair": "no"
      },
      "geometry": {
        "type": "Point",
        "coordinates": [
          2.3769564,
          48.8722915
        ]
      },
      "id": "node/667342369"
    },
    {
      "type": "Feature",
      "properties": {
        "@id": "node/667342370",
        "name": "Boulevard de Belleville",
        "railway": "subway_entrance",
        "ref": "1",
        "wheelchair": "no"
      },
      "geometry": {
        "type": "Point",
        "coordinates": [
          2.3772571,
          48.8719964
        ]
      },
      "id": "node/667342370"
    },
    {
      "type": "Feature",
      "properties": {
        "@id": "node/667342371",
        "name": "Rue Louis Bonnet",
        "railway": "subway_entrance",
        "ref": "6",
        "wheelchair": "no"
      },
      "geometry": {
        "type": "Point",
        "coordinates": [
          2.3767199,
          48.8718387
        ]
      },
      "id": "node/667342371"
    },
    {
      "type": "Feature",
      "properties": {
        "@id": "node/672720702",
        "artist:wikidata": "Q316422",
        "heritage": "3",
        "heritage:operator": "mhs",
        "mhs:inscription_date": "2016-02-12",
        "name": "Rue de Madrid",
        "railway": "subway_entrance",
        "ref": "1",
        "ref:mhs": "PA00088871",
        "source:heritage": "Ministère de la Culture - 2022-01",
        "wheelchair": "no"
      },
      "geometry": {
        "type": "Point",
        "coordinates": [
          2.3226962,
          48.8788583
        ]
      },
      "id": "node/672720702"
    },
    {
      "type": "Feature",
      "properties": {
        "@id": "node/674728218",
        "name": "Rue de la Chapelle (escalator)",
        "railway": "subway_entrance",
        "ref": "2",
        "wheelchair": "no"
      },
      "geometry": {
        "type": "Point",
        "coordinates": [
          2.3593911,
          48.8976345
        ]
      },
      "id": "node/674728218"
    },
    {
      "type": "Feature",
      "properties": {
        "@id": "node/674728407",
        "name": "Boulevard Ney",
        "railway": "subway_entrance",
        "ref": "1"
      },
      "geometry": {
        "type": "Point",
        "coordinates": [
          2.3589373,
          48.8980642
        ]
      },
      "id": "node/674728407"
    },
    {
      "type": "Feature",
      "properties": {
        "@id": "node/676795020",
        "check_date:wheelchair": "2023-01-30",
        "door": "no",
        "entrance": "yes",
        "level": "-0.3",
        "name": "Théâtre du Châtelet",
        "railway": "subway_entrance",
        "ref": "15",
        "source": "cadastre-dgi-fr source : Direction Générale des Impôts - Cadastre. Mise à jour : 2010",
        "wheelchair": "no"
      },
      "geometry": {
        "type": "Point",
        "coordinates": [
          2.3469285,
          48.8578537
        ]
      },
      "id": "node/676795020"
    },
    {
      "type": "Feature",
      "properties": {
        "@id": "node/676795021",
        "check_date:wheelchair": "2022-05-30",
        "door": "no",
        "entrance": "yes",
        "level": "-0.3",
        "name": "Place du Châtelet",
        "railway": "subway_entrance",
        "ref": "16",
        "source": "cadastre-dgi-fr source : Direction Générale des Impôts - Cadastre. Mise à jour : 2010",
        "wheelchair": "no"
      },
      "geometry": {
        "type": "Point",
        "coordinates": [
          2.347385,
          48.8576595
        ]
      },
      "id": "node/676795021"
    },
    {
      "type": "Feature",
      "properties": {
        "@id": "node/676821310",
        "check_date:wheelchair": "2022-04-15",
        "name": "Pont Neuf (rue de la Monnaie)",
        "name:ru": "Пон-Нёф",
        "railway": "subway_entrance",
        "ref": "1",
        "source": "cadastre-dgi-fr source : Direction Générale des Impôts - Cadastre. Mise à jour : 2010",
        "wheelchair": "no"
      },
      "geometry": {
        "type": "Point",
        "coordinates": [
          2.3422794,
          48.8586729
        ]
      },
      "id": "node/676821310"
    },
    {
      "type": "Feature",
      "properties": {
        "@id": "node/676821344",
        "level": "-1",
        "name": "Rue Bertin Poirée",
        "railway": "subway_entrance",
        "ref": "12",
        "source": "cadastre-dgi-fr source : Direction Générale des Impôts - Cadastre. Mise à jour : 2010",
        "tourism": "hotel",
        "wheelchair": "no"
      },
      "geometry": {
        "type": "Point",
        "coordinates": [
          2.3451569,
          48.8593629
        ]
      },
      "id": "node/676821344"
    },
    {
      "type": "Feature",
      "properties": {
        "@id": "node/676872599",
        "check_date:wheelchair": "2023-12-04",
        "door": "no",
        "entrance": "yes",
        "level": "-0.5",
        "name": "Rue des Lavandières",
        "railway": "subway_entrance",
        "ref": "13",
        "source": "cadastre-dgi-fr source : Direction Générale des Impôts - Cadastre. Mise à jour : 2010",
        "wheelchair": "no"
      },
      "geometry": {
        "type": "Point",
        "coordinates": [
          2.3462294,
          48.8589871
        ]
      },
      "id": "node/676872599"
    },
    {
      "type": "Feature",
      "properties": {
        "@id": "node/677034819",
        "door": "no",
        "entrance": "yes",
        "indoor": "yes",
        "level": "-1",
        "name": "Rue Saint-Denis",
        "name:ja": "サン＝ドニ通り",
        "railway": "subway_entrance",
        "ref": "14",
        "source": "survey ; cadastre-dgi-fr source : Direction Générale des Impôts - Cadastre. Mise à jour : 2010",
        "wheelchair": "no"
      },
      "geometry": {
        "type": "Point",
        "coordinates": [
          2.3472619,
          48.858643
        ]
      },
      "id": "node/677034819"
    },
    {
      "type": "Feature",
      "properties": {
        "@id": "node/677104485",
        "name": "Place Louis Lépine",
        "railway": "subway_entrance",
        "ref": "1",
        "source": "cadastre-dgi-fr source : Direction Générale des Impôts - Cadastre. Mise à jour : 2010",
        "wheelchair": "no"
      },
      "geometry": {
        "type": "Point",
        "coordinates": [
          2.3471346,
          48.8551928
        ]
      },
      "id": "node/677104485"
    },
    {
      "type": "Feature",
      "properties": {
        "@id": "node/677731262",
        "door": "no",
        "entrance": "yes",
        "level": "-0.5",
        "name": "Rue de Rivoli",
        "name:ja": "リヴォリ通り",
        "railway": "subway_entrance",
        "ref": "11",
        "source": "survey",
        "wheelchair": "no"
      },
      "geometry": {
        "type": "Point",
        "coordinates": [
          2.3462922,
          48.8592028
        ]
      },
      "id": "node/677731262"
    },
    {
      "type": "Feature",
      "properties": {
        "@id": "node/677731265",
        "door": "no",
        "entrance": "yes",
        "level": "-0.5",
        "name": "Rue de Rivoli",
        "name:ja": "リヴォリ通り",
        "railway": "subway_entrance",
        "ref": "11",
        "source": "survey;cadastre-dgi-fr source : Direction Générale des Impôts - Cadastre. Mise à jour : 2010",
        "wheelchair": "no"
      },
      "geometry": {
        "type": "Point",
        "coordinates": [
          2.3462007,
          48.8592387
        ]
      },
      "id": "node/677731265"
    },
    {
      "type": "Feature",
      "properties": {
        "@id": "node/679476624",
        "artist:wikipedia": "fr:Édicule Guimard",
        "heritage": "3",
        "heritage:operator": "mhs",
        "mhs:inscription_date": "1978",
        "name": "Musée du Louvre (Musée du Louvre)",
        "railway": "subway_entrance",
        "ref": "1",
        "ref:mhs": "PA00085989",
        "source:heritage": "data.gouv.fr:Ministère de la Culture - 08/2011",
        "wheelchair": "no",
        "wikidata": "Q1467113"
      },
      "geometry": {
        "type": "Point",
        "coordinates": [
          2.3365894,
          48.8624122
        ]
      },
      "id": "node/679476624"
    },
    {
      "type": "Feature",
      "properties": {
        "@id": "node/679476628",
        "heritage": "3",
        "heritage:operator": "mhs",
        "level": "-1",
        "mhs:inscription_date": "1978",
        "name": "Place du Palais Royal",
        "name:ru": "Пале-Руаяль — Мюзе-дю-Лувр",
        "railway": "subway_entrance",
        "ref": "2",
        "ref:mhs": "PA00085989",
        "source:heritage": "data.gouv.fr:Ministère de la Culture - 08/2011",
        "wheelchair": "no"
      },
      "geometry": {
        "type": "Point",
        "coordinates": [
          2.3362568,
          48.8625963
        ]
      },
      "id": "node/679476628"
    },
    {
      "type": "Feature",
      "properties": {
        "@id": "node/679476632",
        "heritage": "3",
        "heritage:operator": "mhs",
        "level": "-1",
        "mhs:inscription_date": "1978",
        "name": "Rue Saint-Honoré",
        "name:ru": "Пале-Руаяль — Мюзе-дю-Лувр",
        "railway": "subway_entrance",
        "ref": "3",
        "ref:mhs": "PA00085989",
        "source:heritage": "data.gouv.fr:Ministère de la Culture - 08/2011",
        "wheelchair": "no"
      },
      "geometry": {
        "type": "Point",
        "coordinates": [
          2.3363266,
          48.862721
        ]
      },
      "id": "node/679476632"
    },
    {
      "type": "Feature",
      "properties": {
        "@id": "node/679476635",
        "heritage": "3",
        "heritage:operator": "mhs",
        "mhs:inscription_date": "1978",
        "name": "Rue de Valois (Le Louvre des Antiquaires)",
        "railway": "subway_entrance",
        "ref": "4",
        "ref:mhs": "PA00085989",
        "source:heritage": "data.gouv.fr:Ministère de la Culture - 08/2011",
        "wheelchair": "no"
      },
      "geometry": {
        "type": "Point",
        "coordinates": [
          2.3373042,
          48.8625299
        ]
      },
      "id": "node/679476635"
    },
    {
      "type": "Feature",
      "properties": {
        "@id": "node/680655235",
        "name": "Boulevard de Grenelle",
        "railway": "subway_entrance",
        "ref": "3",
        "wheelchair": "yes"
      },
      "geometry": {
        "type": "Point",
        "coordinates": [
          2.298386,
          48.8489364
        ]
      },
      "id": "node/680655235"
    },
    {
      "type": "Feature",
      "properties": {
        "@id": "node/681294134",
        "check_date:wheelchair": "2022-05-11",
        "name": "Étienne Marcel",
        "railway": "subway_entrance",
        "source": "cadastre-dgi-fr source : Direction Générale des Impôts - Cadastre. Mise à jour : 2010",
        "wheelchair": "no"
      },
      "geometry": {
        "type": "Point",
        "coordinates": [
          2.3489863,
          48.8637067
        ]
      },
      "id": "node/681294134"
    },
    {
      "type": "Feature",
      "properties": {
        "@id": "node/681677352",
        "level": "-1",
        "name": "Place Colette (Théatre de la Comédie Française, Théatre du Palais Royal)",
        "railway": "subway_entrance",
        "ref": "5",
        "wheelchair": "no"
      },
      "geometry": {
        "type": "Point",
        "coordinates": [
          2.3360857,
          48.863124
        ]
      },
      "id": "node/681677352"
    },
    {
      "type": "Feature",
      "properties": {
        "@id": "node/682294033",
        "name": "Rue de l'Échelle",
        "railway": "subway_entrance",
        "ref": "2",
        "source": "cadastre-dgi-fr source : Direction Générale des Impôts - Cadastre. Mise à jour : 2010",
        "wheelchair": "yes"
      },
      "geometry": {
        "type": "Point",
        "coordinates": [
          2.3344149,
          48.865374
        ]
      },
      "id": "node/682294033"
    },
    {
      "type": "Feature",
      "properties": {
        "@id": "node/682294043",
        "railway": "subway_entrance"
      },
      "geometry": {
        "type": "Point",
        "coordinates": [
          2.3336091,
          48.8659987
        ]
      },
      "id": "node/682294043"
    },
    {
      "type": "Feature",
      "properties": {
        "@id": "node/682294077",
        "name": "Avenue de l'Opéra",
        "railway": "subway_entrance",
        "ref": "1",
        "source": "cadastre-dgi-fr source : Direction Générale des Impôts - Cadastre. Mise à jour : 2010",
        "wheelchair": "no"
      },
      "geometry": {
        "type": "Point",
        "coordinates": [
          2.3347053,
          48.8654432
        ]
      },
      "id": "node/682294077"
    },
    {
      "type": "Feature",
      "properties": {
        "@id": "node/683398955",
        "name": "Rue Saint-Florentin",
        "railway": "subway_entrance",
        "ref": "3",
        "wheelchair": "no"
      },
      "geometry": {
        "type": "Point",
        "coordinates": [
          2.3237284,
          48.8665045
        ]
      },
      "id": "node/683398955"
    },
    {
      "type": "Feature",
      "properties": {
        "@id": "node/683486949",
        "name": "Rue Duphot",
        "railway": "subway_entrance",
        "ref": "3",
        "source": "survey",
        "wheelchair": "no"
      },
      "geometry": {
        "type": "Point",
        "coordinates": [
          2.3254315,
          48.8693651
        ]
      },
      "id": "node/683486949"
    },
    {
      "type": "Feature",
      "properties": {
        "@id": "node/683486953",
        "name": "Église",
        "railway": "subway_entrance",
        "ref": "2",
        "source": "survey",
        "wheelchair": "no"
      },
      "geometry": {
        "type": "Point",
        "coordinates": [
          2.3252642,
          48.8696989
        ]
      },
      "id": "node/683486953"
    },
    {
      "type": "Feature",
      "properties": {
        "@id": "node/685907579",
        "heritage": "3",
        "heritage:operator": "mhs",
        "mhs:inscription_date": "1978",
        "name": "Rue du Quatre-Septembre",
        "railway": "subway_entrance",
        "ref": "1",
        "ref:mhs": "PA00086085",
        "source": "cadastre-dgi-fr source : Direction Générale des Impôts - Cadastre. Mise à jour : 2010",
        "source:heritage": "data.gouv.fr:Ministère de la Culture - 08/2011",
        "wheelchair": "no",
        "wikidata": "Q945229",
        "wikipedia": "fr:Quatre-Septembre (métro de Paris)"
      },
      "geometry": {
        "type": "Point",
        "coordinates": [
          2.3358767,
          48.8695643
        ]
      },
      "id": "node/685907579"
    },
    {
      "type": "Feature",
      "properties": {
        "@id": "node/687096924",
        "name": "Rue Marivaux (Opéra comique)",
        "railway": "subway_entrance",
        "ref": "7",
        "source": "cadastre-dgi-fr source : Direction Générale des Impôts - Cadastre. Mise à jour : 2010",
        "wheelchair": "no"
      },
      "geometry": {
        "type": "Point",
        "coordinates": [
          2.3378119,
          48.871496
        ]
      },
      "id": "node/687096924"
    },
    {
      "type": "Feature",
      "properties": {
        "@id": "node/687893107",
        "name": "Rue de Richelieu",
        "railway": "subway_entrance",
        "ref": "2",
        "source": "cadastre-dgi-fr source : Direction Générale des Impôts - Cadastre. Mise à jour : 2010",
        "wheelchair": "no"
      },
      "geometry": {
        "type": "Point",
        "coordinates": [
          2.3393828,
          48.8717636
        ]
      },
      "id": "node/687893107"
    },
    {
      "type": "Feature",
      "properties": {
        "@id": "node/687929526",
        "name": "Rue Montmartre",
        "railway": "subway_entrance",
        "ref": "3",
        "source": "cadastre-dgi-fr source : Direction Générale des Impôts - Cadastre. Mise à jour : 2010",
        "wheelchair": "no"
      },
      "geometry": {
        "type": "Point",
        "coordinates": [
          2.3426671,
          48.8714573
        ]
      },
      "id": "node/687929526"
    },
    {
      "type": "Feature",
      "properties": {
        "@id": "node/688074786",
        "architect": "Joseph Cassien-Bernard",
        "level": "-1",
        "name": "Place de l'Opéra (théâtre national de l'Opéra)",
        "railway": "subway_entrance",
        "ref": "1",
        "wheelchair": "no"
      },
      "geometry": {
        "type": "Point",
        "coordinates": [
          2.3322018,
          48.8708961
        ]
      },
      "id": "node/688074786"
    },
    {
      "type": "Feature",
      "properties": {
        "@id": "node/688074807",
        "architect": "Joseph Cassien-Bernard",
        "name": "Rue de la Paix",
        "railway": "subway_entrance",
        "ref": "2",
        "wheelchair": "no"
      },
      "geometry": {
        "type": "Point",
        "coordinates": [
          2.3323882,
          48.8704583
        ]
      },
      "id": "node/688074807"
    },
    {
      "type": "Feature",
      "properties": {
        "@id": "node/689486524",
        "name": "Rue Saint-Fiacre",
        "railway": "subway_entrance",
        "ref": "5",
        "source": "cadastre-dgi-fr source : Direction Générale des Impôts - Cadastre. Mise à jour : 2010",
        "wheelchair": "no"
      },
      "geometry": {
        "type": "Point",
        "coordinates": [
          2.3454844,
          48.8709937
        ]
      },
      "id": "node/689486524"
    },
    {
      "type": "Feature",
      "properties": {
        "@id": "node/689486696",
        "check_date:wheelchair": "2024-05-18",
        "name": "Rue Saint-Fiacre",
        "railway": "subway_entrance",
        "ref": "5",
        "source": "cadastre-dgi-fr source : Direction Générale des Impôts - Cadastre. Mise à jour : 2010",
        "survey:date": "2017-07-21",
        "wheelchair": "no"
      },
      "geometry": {
        "type": "Point",
        "coordinates": [
          2.3457686,
          48.8709453
        ]
      },
      "id": "node/689486696"
    },
    {
      "type": "Feature",
      "properties": {
        "@id": "node/690934081",
        "check_date:wheelchair": "2024-05-18",
        "name": "Boulevard Poissonnière",
        "railway": "subway_entrance",
        "ref": "4",
        "source": "cadastre-dgi-fr source : Direction Générale des Impôts - Cadastre. Mise à jour : 2010",
        "wheelchair": "no"
      },
      "geometry": {
        "type": "Point",
        "coordinates": [
          2.3434431,
          48.8713392
        ]
      },
      "id": "node/690934081"
    },
    {
      "type": "Feature",
      "properties": {
        "@id": "node/690981959",
        "name": "Rue du Sentier",
        "railway": "subway_entrance",
        "ref": "1",
        "source": "cadastre-dgi-fr source : Direction Générale des Impôts - Cadastre. Mise à jour : 2010",
        "wheelchair": "no"
      },
      "geometry": {
        "type": "Point",
        "coordinates": [
          2.3474642,
          48.8706564
        ]
      },
      "id": "node/690981959"
    },
    {
      "type": "Feature",
      "properties": {
        "@id": "node/690982310",
        "name": "Rue du Sentier",
        "railway": "subway_entrance",
        "ref": "1",
        "source": "cadastre-dgi-fr source : Direction Générale des Impôts - Cadastre. Mise à jour : 2010",
        "wheelchair": "no"
      },
      "geometry": {
        "type": "Point",
        "coordinates": [
          2.347261,
          48.8706972
        ]
      },
      "id": "node/690982310"
    },
    {
      "type": "Feature",
      "properties": {
        "@id": "node/691614222",
        "entrance": "yes",
        "name": "Rue Saint-Denis",
        "name:ja": "サン＝ドニ通り",
        "railway": "subway_entrance",
        "ref": "3",
        "source": "cadastre-dgi-fr source : Direction Générale des Impôts - Cadastre. Mise à jour : 2010",
        "wheelchair": "no"
      },
      "geometry": {
        "type": "Point",
        "coordinates": [
          2.3504826,
          48.866602
        ]
      },
      "id": "node/691614222"
    },
    {
      "type": "Feature",
      "properties": {
        "@id": "node/692128855",
        "name": "Boulevard de Sébastopol",
        "railway": "subway_entrance",
        "ref": "1",
        "source": "cadastre-dgi-fr source : Direction Générale des Impôts - Cadastre. Mise à jour : 2010",
        "wheelchair": "no"
      },
      "geometry": {
        "type": "Point",
        "coordinates": [
          2.3536823,
          48.8693625
        ]
      },
      "id": "node/692128855"
    },
    {
      "type": "Feature",
      "properties": {
        "@id": "node/692129033",
        "name": "Rue Saint-Denis",
        "name:ja": "サン＝ドニ通り",
        "railway": "subway_entrance",
        "ref": "5",
        "source": "cadastre-dgi-fr source : Direction Générale des Impôts - Cadastre. Mise à jour : 2010",
        "wheelchair": "no"
      },
      "geometry": {
        "type": "Point",
        "coordinates": [
          2.3528335,
          48.8695477
        ]
      },
      "id": "node/692129033"
    },
    {
      "type": "Feature",
      "properties": {
        "@id": "node/692129124",
        "name": "Boulevard de Sébastopol",
        "railway": "subway_entrance",
        "ref": "1",
        "source": "cadastre-dgi-fr source : Direction Générale des Impôts - Cadastre. Mise à jour : 2010",
        "wheelchair": "no"
      },
      "geometry": {
        "type": "Point",
        "coordinates": [
          2.3538263,
          48.8693311
        ]
      },
      "id": "node/692129124"
    },
    {
      "type": "Feature",
      "properties": {
        "@id": "node/694399434",
        "name": "Rue de la Lune",
        "railway": "subway_entrance",
        "ref": "5",
        "source": "cadastre-dgi-fr source : Direction Générale des Impôts - Cadastre. Mise à jour : 2010",
        "wheelchair": "no"
      },
      "geometry": {
        "type": "Point",
        "coordinates": [
          2.3505321,
          48.8700403
        ]
      },
      "id": "node/694399434"
    },
    {
      "type": "Feature",
      "properties": {
        "@id": "node/694399703",
        "name": "Boulevard de Bonne Nouvelle",
        "railway": "subway_entrance",
        "ref": "6",
        "source": "cadastre-dgi-fr source : Direction Générale des Impôts - Cadastre. Mise à jour : 2010",
        "wheelchair": "no"
      },
      "geometry": {
        "type": "Point",
        "coordinates": [
          2.3502995,
          48.8700898
        ]
      },
      "id": "node/694399703"
    },
    {
      "type": "Feature",
      "properties": {
        "@id": "node/696674567",
        "name": "Rue du Renard (Centre Georges Pompidou)",
        "railway": "subway_entrance",
        "ref": "2",
        "source": "survey",
        "wheelchair": "no"
      },
      "geometry": {
        "type": "Point",
        "coordinates": [
          2.3514345,
          48.8576653
        ]
      },
      "id": "node/696674567"
    },
    {
      "type": "Feature",
      "properties": {
        "@id": "node/697180639",
        "name": "Hôtel de Ville",
        "railway": "subway_entrance",
        "ref": "5",
        "source": "cadastre-dgi-fr source : Direction Générale des Impôts - Cadastre. Mise à jour : 2010",
        "wheelchair": "no"
      },
      "geometry": {
        "type": "Point",
        "coordinates": [
          2.3521618,
          48.8570778
        ]
      },
      "id": "node/697180639"
    },
    {
      "type": "Feature",
      "properties": {
        "@id": "node/697182972",
        "name": "Avenue Victoria",
        "railway": "subway_entrance",
        "ref": "4",
        "source": "cadastre-dgi-fr source : Direction Générale des Impôts - Cadastre. Mise à jour : 2010",
        "wheelchair": "no"
      },
      "geometry": {
        "type": "Point",
        "coordinates": [
          2.3512272,
          48.8572916
        ]
      },
      "id": "node/697182972"
    },
    {
      "type": "Feature",
      "properties": {
        "@id": "node/697571365",
        "check_date:wheelchair": "2022-08-27",
        "name": "Rue Rambuteau",
        "railway": "subway_entrance",
        "ref": "2",
        "source": "cadastre-dgi-fr source : Direction Générale des Impôts - Cadastre. Mise à jour : 2010",
        "wheelchair": "no"
      },
      "geometry": {
        "type": "Point",
        "coordinates": [
          2.3536074,
          48.8612692
        ]
      },
      "id": "node/697571365"
    },
    {
      "type": "Feature",
      "properties": {
        "@id": "node/697571534",
        "name": "Rue Beaubourg (Centre Pompidou)",
        "railway": "subway_entrance",
        "ref": "1",
        "source": "cadastre-dgi-fr source : Direction Générale des Impôts - Cadastre. Mise à jour : 2010",
        "wheelchair": "no"
      },
      "geometry": {
        "type": "Point",
        "coordinates": [
          2.3534645,
          48.8614079
        ]
      },
      "id": "node/697571534"
    },
    {
      "type": "Feature",
      "properties": {
        "@id": "node/698084308",
        "door": "no",
        "entrance": "yes",
        "level": "-0.5",
        "name": "Avenue Victoria",
        "railway": "subway_entrance",
        "ref": "18",
        "source": "survey;cadastre-dgi-fr source : Direction Générale des Impôts - Cadastre. Mise à jour : 2010",
        "wheelchair": "no"
      },
      "geometry": {
        "type": "Point",
        "coordinates": [
          2.348791,
          48.8573422
        ]
      },
      "id": "node/698084308"
    },
    {
      "type": "Feature",
      "properties": {
        "@id": "node/699079964",
        "name": "Pont Marie (Île Saint-Louis)",
        "railway": "subway_entrance",
        "ref": "2",
        "source": "cadastre-dgi-fr source : Direction Générale des Impôts - Cadastre. Mise à jour : 2010",
        "wheelchair": "no"
      },
      "geometry": {
        "type": "Point",
        "coordinates": [
          2.357288,
          48.8536349
        ]
      },
      "id": "node/699079964"
    },
    {
      "type": "Feature",
      "properties": {
        "@id": "node/699080136",
        "name": "Quai de l'Hôtel de Ville (Cité des Arts)",
        "railway": "subway_entrance",
        "ref": "1",
        "source": "cadastre-dgi-fr source : Direction Générale des Impôts - Cadastre. Mise à jour : 2010",
        "wheelchair": "no"
      },
      "geometry": {
        "type": "Point",
        "coordinates": [
          2.3571498,
          48.8536839
        ]
      },
      "id": "node/699080136"
    },
    {
      "type": "Feature",
      "properties": {
        "@id": "node/699897450",
        "check_date:wheelchair": "2021-11-19",
        "door": "no",
        "entrance": "yes",
        "level": "-0.3",
        "name": "Théâtre de la Ville",
        "railway": "subway_entrance",
        "ref": "17",
        "source": "cadastre-dgi-fr source : Direction Générale des Impôts - Cadastre. Mise à jour : 2010",
        "wheelchair": "no"
      },
      "geometry": {
        "type": "Point",
        "coordinates": [
          2.3479184,
          48.8575823
        ]
      },
      "id": "node/699897450"
    },
    {
      "type": "Feature",
      "properties": {
        "@id": "node/703430271",
        "name": "Rue Monge",
        "railway": "subway_entrance",
        "ref": "2",
        "source": "cadastre-dgi-fr source : Direction Générale des Impôts - Cadastre ; mise à jour : 2010",
        "wheelchair": "no"
      },
      "geometry": {
        "type": "Point",
        "coordinates": [
          2.3515106,
          48.8404419
        ]
      },
      "id": "node/703430271"
    },
    {
      "type": "Feature",
      "properties": {
        "@id": "node/703504456",
        "check_date:wheelchair": "2023-01-08",
        "name": "Rue de Rivoli",
        "railway": "subway_entrance",
        "ref": "1",
        "source": "cadastre-dgi-fr source : Direction Générale des Impôts - Cadastre. Mise à jour : 2010",
        "wheelchair": "no"
      },
      "geometry": {
        "type": "Point",
        "coordinates": [
          2.3601206,
          48.8553048
        ]
      },
      "id": "node/703504456"
    },
    {
      "type": "Feature",
      "properties": {
        "@id": "node/703504511",
        "check_date:wheelchair": "2024-04-22",
        "name": "Rue de Rivoli",
        "railway": "subway_entrance",
        "ref": "1",
        "source": "cadastre-dgi-fr source : Direction Générale des Impôts - Cadastre. Mise à jour : 2010",
        "wheelchair": "no"
      },
      "geometry": {
        "type": "Point",
        "coordinates": [
          2.3602961,
          48.8552672
        ]
      },
      "id": "node/703504511"
    },
    {
      "type": "Feature",
      "properties": {
        "@id": "node/703988576",
        "name": "Boulevard Beaumarchais",
        "railway": "subway_entrance",
        "ref": "8",
        "wheelchair": "no"
      },
      "geometry": {
        "type": "Point",
        "coordinates": [
          2.3687104,
          48.8539963
        ]
      },
      "id": "node/703988576"
    },
    {
      "type": "Feature",
      "properties": {
        "@id": "node/705182171",
        "name": "Rue des Célestins",
        "railway": "subway_entrance",
        "ref": "4",
        "source": "survey 2013",
        "wheelchair": "no"
      },
      "geometry": {
        "type": "Point",
        "coordinates": [
          2.3612136,
          48.8521318
        ]
      },
      "id": "node/705182171"
    },
    {
      "type": "Feature",
      "properties": {
        "@id": "node/705182504",
        "name": "Rue des Célestins",
        "railway": "subway_entrance",
        "ref": "4",
        "source": "survey 2013",
        "wheelchair": "no"
      },
      "geometry": {
        "type": "Point",
        "coordinates": [
          2.3612972,
          48.8520803
        ]
      },
      "id": "node/705182504"
    },
    {
      "type": "Feature",
      "properties": {
        "@id": "node/705357625",
        "name": "Boulevard Henri IV",
        "railway": "subway_entrance",
        "ref": "6",
        "source": "cadastre-dgi-fr source : Direction Générale des Impôts - Cadastre. Mise à jour : 2010",
        "wheelchair": "no"
      },
      "geometry": {
        "type": "Point",
        "coordinates": [
          2.3679051,
          48.8526136
        ]
      },
      "id": "node/705357625"
    },
    {
      "type": "Feature",
      "properties": {
        "@id": "node/705458949",
        "name": "Boulevard Bourdon",
        "railway": "subway_entrance",
        "ref": "5",
        "source": "cadastre-dgi-fr source : Direction Générale des Impôts - Cadastre. Mise à jour : 2010",
        "wheelchair": "limited"
      },
      "geometry": {
        "type": "Point",
        "coordinates": [
          2.3678066,
          48.852363
        ]
      },
      "id": "node/705458949"
    },
    {
      "type": "Feature",
      "properties": {
        "@id": "node/706245861",
        "name": "Rue de Turbigo, Rue Beaubourg",
        "railway": "subway_entrance",
        "ref": "3",
        "source": "cadastre-dgi-fr source : Direction Générale des Impôts - Cadastre. Mise à jour : 2010",
        "wheelchair": "no"
      },
      "geometry": {
        "type": "Point",
        "coordinates": [
          2.3554797,
          48.86524
        ]
      },
      "id": "node/706245861"
    },
    {
      "type": "Feature",
      "properties": {
        "@id": "node/706316004",
        "bicycle": "no",
        "name": "Rue Conté, Rue de Turbigo côté numéros impairs",
        "railway": "subway_entrance",
        "ref": "1",
        "source": "cadastre-dgi-fr source : Direction Générale des Impôts - Cadastre. Mise à jour : 2010",
        "wheelchair": "no"
      },
      "geometry": {
        "type": "Point",
        "coordinates": [
          2.3567111,
          48.8656804
        ]
      },
      "id": "node/706316004"
    },
    {
      "type": "Feature",
      "properties": {
        "@id": "node/706645717",
        "name": "Rue Saint-Martin",
        "railway": "subway_entrance",
        "ref": "2",
        "source": "cadastre-dgi-fr source : Direction Générale des Impôts - Cadastre. Mise à jour : 2010",
        "wheelchair": "no"
      },
      "geometry": {
        "type": "Point",
        "coordinates": [
          2.3545233,
          48.8691696
        ]
      },
      "id": "node/706645717"
    },
    {
      "type": "Feature",
      "properties": {
        "@id": "node/706743993",
        "name": "Boulevard Saint-Martin",
        "railway": "subway_entrance",
        "ref": "7",
        "source": "cadastre-dgi-fr source : Direction Générale des Impôts - Cadastre. Mise à jour : 2010",
        "wheelchair": "no"
      },
      "geometry": {
        "type": "Point",
        "coordinates": [
          2.3613359,
          48.8680145
        ]
      },
      "id": "node/706743993"
    },
    {
      "type": "Feature",
      "properties": {
        "@id": "node/707827510",
        "check_date:wheelchair": "2024-05-08",
        "heritage": "3",
        "heritage:operator": "mhs",
        "mhs:inscription_date": "1978",
        "name": "Place Élisabeth Dmitrieff",
        "railway": "subway_entrance",
        "ref": "1",
        "ref:mhs": "PA00086229",
        "source": "cadastre-dgi-fr source : Direction Générale des Impôts - Cadastre. Mise à jour : 2010",
        "source:heritage": "data.gouv.fr:Ministère de la Culture - 08/2011",
        "wheelchair": "no",
        "wikidata": "Q1660212",
        "wikipedia": "fr:Temple (métro de Paris)"
      },
      "geometry": {
        "type": "Point",
        "coordinates": [
          2.3615114,
          48.8665959
        ]
      },
      "id": "node/707827510"
    },
    {
      "type": "Feature",
      "properties": {
        "@id": "node/708000002",
        "bicycle": "no",
        "name": "Rue Réaumur, Rue de Turbigo côté numéros pairs",
        "railway": "subway_entrance",
        "ref": "2",
        "source": "cadastre-dgi-fr source : Direction Générale des Impôts - Cadastre. Mise à jour : 2010",
        "wheelchair": "no"
      },
      "geometry": {
        "type": "Point",
        "coordinates": [
          2.3567614,
          48.865445
        ]
      },
      "id": "node/708000002"
    },
    {
      "type": "Feature",
      "properties": {
        "@id": "node/710888108",
        "name": "Rue du Temple",
        "railway": "subway_entrance",
        "ref": "2",
        "source": "cadastre-dgi-fr source : Direction Générale des Impôts - Cadastre. Mise à jour : 2010",
        "wheelchair": "no"
      },
      "geometry": {
        "type": "Point",
        "coordinates": [
          2.3635056,
          48.8670455
        ]
      },
      "id": "node/710888108"
    },
    {
      "type": "Feature",
      "properties": {
        "@id": "node/710907212",
        "layer": "-1",
        "name": "Square Henri Christiné",
        "railway": "subway_entrance",
        "ref": "10",
        "source": "cadastre-dgi-fr source : Direction Générale des Impôts - Cadastre. Mise à jour : 2010",
        "wheelchair": "no"
      },
      "geometry": {
        "type": "Point",
        "coordinates": [
          2.3631884,
          48.8680821
        ]
      },
      "id": "node/710907212"
    },
    {
      "type": "Feature",
      "properties": {
        "@id": "node/710913147",
        "check_date:wheelchair": "2024-03-29",
        "name": "Rue du Faubourg du Temple",
        "railway": "subway_entrance",
        "ref": "4",
        "source": "cadastre-dgi-fr source : Direction Générale des Impôts - Cadastre. Mise à jour : 2010",
        "wheelchair": "no"
      },
      "geometry": {
        "type": "Point",
        "coordinates": [
          2.3645592,
          48.8678997
        ]
      },
      "id": "node/710913147"
    },
    {
      "type": "Feature",
      "properties": {
        "@id": "node/710942823",
        "name": "Boulevard Voltaire",
        "railway": "subway_entrance",
        "ref": "8",
        "wheelchair": "no"
      },
      "geometry": {
        "type": "Point",
        "coordinates": [
          2.3649226,
          48.8668445
        ]
      },
      "id": "node/710942823"
    },
    {
      "type": "Feature",
      "properties": {
        "@id": "node/710942840",
        "name": "Avenue de la République",
        "railway": "subway_entrance",
        "ref": "9",
        "source": "cadastre-dgi-fr source : Direction Générale des Impôts - Cadastre. Mise à jour : 2010",
        "wheelchair": "no"
      },
      "geometry": {
        "type": "Point",
        "coordinates": [
          2.3649828,
          48.867459
        ]
      },
      "id": "node/710942840"
    },
    {
      "type": "Feature",
      "properties": {
        "@id": "node/711007611",
        "name": "Boulevard de Magenta",
        "railway": "subway_entrance",
        "ref": "5",
        "source": "cadastre-dgi-fr source : Direction Générale des Impôts - Cadastre. Mise à jour : 2010",
        "wheelchair": "no"
      },
      "geometry": {
        "type": "Point",
        "coordinates": [
          2.3625095,
          48.8682643
        ]
      },
      "id": "node/711007611"
    },
    {
      "type": "Feature",
      "properties": {
        "@id": "node/717961634",
        "name": "Boulevard des Filles du Calvaire (Musée Picasso)",
        "railway": "subway_entrance",
        "ref": "1",
        "source": "cadastre-dgi-fr source : Direction Générale des Impôts - Cadastre. Mise à jour : 2010",
        "wheelchair": "no"
      },
      "geometry": {
        "type": "Point",
        "coordinates": [
          2.3664715,
          48.8632843
        ]
      },
      "id": "node/717961634"
    },
    {
      "type": "Feature",
      "properties": {
        "@id": "node/717970279",
        "level": "-1",
        "name": "Rue Amelot (Cirque d'Hiver)",
        "railway": "subway_entrance",
        "ref": "2",
        "wheelchair": "no"
      },
      "geometry": {
        "type": "Point",
        "coordinates": [
          2.3667214,
          48.8634133
        ]
      },
      "id": "node/717970279"
    },
    {
      "type": "Feature",
      "properties": {
        "@id": "node/718686169",
        "name": "Rue Froissart",
        "railway": "subway_entrance",
        "ref": "1",
        "source": "cadastre-dgi-fr source : Direction Générale des Impôts - Cadastre. Mise à jour : 2010",
        "wheelchair": "no"
      },
      "geometry": {
        "type": "Point",
        "coordinates": [
          2.367039,
          48.8612143
        ]
      },
      "id": "node/718686169"
    },
    {
      "type": "Feature",
      "properties": {
        "@id": "node/721551451",
        "name": "Boulevard Beaumarchais, Rue Saint-Gilles (Place des Vosges)",
        "railway": "subway_entrance",
        "ref": "1",
        "source": "cadastre-dgi-fr source : Direction Générale des Impôts - Cadastre. Mise à jour : 2010",
        "toilets:wheelchair": "no",
        "wheelchair": "no"
      },
      "geometry": {
        "type": "Point",
        "coordinates": [
          2.3679498,
          48.85744
        ]
      },
      "id": "node/721551451"
    },
    {
      "type": "Feature",
      "properties": {
        "@id": "node/726521066",
        "name": "Rue des Bluets",
        "railway": "subway_entrance",
        "ref": "4",
        "wheelchair": "no"
      },
      "geometry": {
        "type": "Point",
        "coordinates": [
          2.3808692,
          48.8641504
        ]
      },
      "id": "node/726521066"
    },
    {
      "type": "Feature",
      "properties": {
        "@id": "node/760421322",
        "name": "Boulevard Vincent Auriol",
        "railway": "subway_entrance",
        "ref": "1",
        "wheelchair": "no"
      },
      "geometry": {
        "type": "Point",
        "coordinates": [
          2.3620857,
          48.8329525
        ]
      },
      "id": "node/760421322"
    },
    {
      "type": "Feature",
      "properties": {
        "@id": "node/765949059",
        "check_date:wheelchair": "2022-05-14",
        "door": "no",
        "level": "-1",
        "name": "Rue Pernety",
        "railway": "subway_entrance",
        "ref": "1",
        "source": "survey",
        "wheelchair": "no"
      },
      "geometry": {
        "type": "Point",
        "coordinates": [
          2.3178924,
          48.833987
        ]
      },
      "id": "node/765949059"
    },
    {
      "type": "Feature",
      "properties": {
        "@id": "node/768033705",
        "name": "Rue Saint-Dominique",
        "name:ru": "Сольферино",
        "railway": "subway_entrance",
        "ref": "3",
        "wheelchair": "no"
      },
      "geometry": {
        "type": "Point",
        "coordinates": [
          2.3233881,
          48.8579895
        ]
      },
      "id": "node/768033705"
    },
    {
      "type": "Feature",
      "properties": {
        "@id": "node/773511251",
        "name": "Rue du commerce",
        "railway": "subway_entrance",
        "ref": "1"
      },
      "geometry": {
        "type": "Point",
        "coordinates": [
          2.2977746,
          48.8491041
        ]
      },
      "id": "node/773511251"
    },
    {
      "type": "Feature",
      "properties": {
        "@id": "node/775370144",
        "name": "Rue du Faubourg Saint-Denis",
        "railway": "subway_entrance",
        "ref": "2",
        "wheelchair": "no"
      },
      "geometry": {
        "type": "Point",
        "coordinates": [
          2.3596125,
          48.8843727
        ]
      },
      "id": "node/775370144"
    },
    {
      "type": "Feature",
      "properties": {
        "@id": "node/775370145",
        "check_date:wheelchair": "2024-06-08",
        "name": "Rue Marx Dormoy",
        "railway": "subway_entrance",
        "ref": "1",
        "wheelchair": "no"
      },
      "geometry": {
        "type": "Point",
        "coordinates": [
          2.3596601,
          48.8844569
        ]
      },
      "id": "node/775370145"
    },
    {
      "type": "Feature",
      "properties": {
        "@id": "node/775370153",
        "alt_name": "Anvers",
        "heritage": "3",
        "heritage:operator": "mhs",
        "mhs:inscription_date": "1978",
        "name": "Boulevard de Rochechouart (Sacré-Cœur)",
        "railway": "subway_entrance",
        "ref": "1",
        "ref:mhs": "PA00086749",
        "source:heritage": "data.gouv.fr:Ministère de la Culture - 04/2015",
        "survey:date": "2017-07-25",
        "wheelchair": "no",
        "wikidata": "Q612971",
        "wikipedia": "fr:Édicule Guimard"
      },